[{ "name": "Berlin", "lon": 13.4, "lat": 52.517, "radius": 20 },
{ "name": "London", "lon": -0.1, "lat": 51.52, "radius": 30 },
{ "name": "Leeds", "lon": -1.55, "lat": 53.81, "radius": 8 },
{ "name": "Oxford", "lon": -1.26, "lat": 51.76, "radius": 9 },
{ "name": "Hamburg", "lon": 10.0, "lat": 53.55, "radius": 12 },
{ "name": "Munchen", "lon": 11.58, "lat": 48.14, "radius": 21 },
{ "name": "Paris", "lon": 2.34, "lat": 48.86, "radius": 35 },
{ "name": "Orleans", "lon": 1.9, "lat": 47.90, "radius": 14 },
{ "name": "Creteil", "lon": 2.45, "lat": 48.79, "radius": 12 },
{ "name": "Tokyo", "lon": 139.45, "lat": 35.40, "radius": 45 },
{ "name": "Osaka", "lon": 135.50, "lat": 34.68, "radius": 21 },
{ "name": "Sapporo", "lon": 141.34, "lat": 43.06, "radius": 12 },
{ "name": "Fukuoka", "lon": 130.41, "lat": 33.59, "radius": 9 },
{ "name": "Seoul", "lon": 126.99, "lat": 37.56, "radius": 10 },
{ "name": "Pusan", "lon": 129.03, "lat": 35.11, "radius": 8 },
{ "name": "Taegu", "lon": 128.60, "lat": 35.87, "radius": 14 },
{ "name": "San Francisco", "lon": -122.25, "lat": 37.77, "radius": 5 }]
